[
  {
    "provider": "aws",
    "regionId": "us-west-2",
    "location": "Oregon, USA",
    "geography": "Americas",
    "lon": -122.68,
    "lat": 45.52,
    "x": 159.22,
    "y": 123.56,
    "freeServerless": false,
    "dedicated": true
  },
  {
    "provider": "aws",
    "regionId": "us-east-1",
    "location": "N. Virginia, USA",
    "geography": "Americas",
    "lon": -77.49,
    "lat": 39.04,
    "x": 284.75,
    "y": 141.56,
    "freeServerless": false,
    "dedicated": true
  },
  {
    "provider": "aws",
    "regionId": "us-east-2",
    "location": "Ohio, USA",
    "geography": "Americas",
    "lon": -82.99,
    "lat": 39.96,
    "x": 269.47,
    "y": 139.0,
    "freeServerless": false,
    "dedicated": true
  },
  {
    "provider": "aws",
    "regionId": "ca-central-1",
    "location": "Canada Central",
    "geography": "Americas",
    "lon": -73.57,
    "lat": 45.5,
    "x": 295.64,
    "y": 123.61,
    "freeServerless": false,
    "dedicated": true
  },
  {
    "provider": "aws",
    "regionId": "eu-central-1",
    "location": "Frankfurt, Germany",
    "geography": "Europe",
    "lon": 8.68,
    "lat": 50.11,
    "x": 524.11,
    "y": 110.81,
    "freeServerless": true,
    "dedicated": true
  },
  {
    "provider": "aws",
    "regionId": "eu-west-1",
    "location": "Ireland",
    "geography": "Europe",
    "lon": -6.26,
    "lat": 53.35,
    "x": 482.61,
    "y": 101.81,
    "freeServerless": true,
    "dedicated": true
  },
  {
    "provider": "aws",
    "regionId": "ap-northeast-1",
    "location": "Tokyo, Japan",
    "geography": "Asia Pacific",
    "lon": 139.65,
    "lat": 35.68,
    "x": 887.92,
    "y": 150.89,
    "freeServerless": false,
    "dedicated": true
  },
  {
    "provider": "aws",
    "regionId": "ap-northeast-2",
    "location": "Seoul, Korea",
    "geography": "Asia Pacific",
    "lon": 126.98,
    "lat": 37.57,
    "x": 852.72,
    "y": 145.64,
    "freeServerless": false,
    "dedicated": true
  },
  {
    "provider": "aws",
    "regionId": "ap-southeast-1",
    "location": "Singapore",
    "geography": "Asia Pacific",
    "lon": 103.82,
    "lat": 1.35,
    "x": 788.39,
    "y": 246.25,
    "freeServerless": false,
    "dedicated": true
  },
  {
    "provider": "aws",
    "regionId": "ap-southeast-2",
    "location": "Sydney, Australia",
    "geography": "Asia Pacific",
    "lon": 151.21,
    "lat": -33.87,
    "x": 920.03,
    "y": 344.08,
    "freeServerless": false,
    "dedicated": true
  },
  {
    "provider": "gcp",
    "regionId": "us-west1",
    "location": "Oregon, USA",
    "geography": "Americas",
    "lon": -122.68,
    "lat": 45.52,
    "x": 159.22,
    "y": 123.56,
    "freeServerless": true,
    "dedicated": true
  },
  {
    "provider": "gcp",
    "regionId": "us-east4",
    "location": "N. Virginia, USA",
    "geography": "Americas",
    "lon": -77.49,
    "lat": 39.04,
    "x": 284.75,
    "y": 141.56,
    "freeServerless": false,
    "dedicated": true
  },
  {
    "provider": "gcp",
    "regionId": "us-central1",
    "location": "Iowa, USA",
    "geography": "Americas",
    "lon": -93.62,
    "lat": 41.59,
    "x": 239.94,
    "y": 134.47,
    "freeServerless": false,
    "dedicated": true
  },
  {
    "provider": "gcp",
    "regionId": "europe-west3",
    "location": "Frankfurt, Germany",
    "geography": "Europe",
    "lon": 8.68,
    "lat": 50.11,
    "x": 524.11,
    "y": 110.81,
    "freeServerless": false,
    "dedicated": true
  },
  {
    "provider": "gcp",
    "regionId": "asia-southeast1",
    "location": "Singapore",
    "geography": "Asia Pacific",
    "lon": 103.82,
    "lat": 1.35,
    "x": 788.39,
    "y": 246.25,
    "freeServerless": false,
    "dedicated": true
  },
  {
    "provider": "azure",
    "regionId": "East US",
    "location": "N. Virginia, USA",
    "geography": "Americas",
    "lon": -77.49,
    "lat": 39.04,
    "x": 284.75,
    "y": 141.56,
    "freeServerless": false,
    "dedicated": true
  },
  {
    "provider": "azure",
    "regionId": "East US 2",
    "location": "N. Virginia, USA",
    "geography": "Americas",
    "lon": -77.49,
    "lat": 39.04,
    "x": 284.75,
    "y": 141.56,
    "freeServerless": false,
    "dedicated": true
  },
  {
    "provider": "azure",
    "regionId": "Central US",
    "location": "Iowa, USA",
    "geography": "Americas",
    "lon": -93.62,
    "lat": 41.59,
    "x": 239.94,
    "y": 134.47,
    "freeServerless": false,
    "dedicated": true
  },
  {
    "provider": "azure",
    "regionId": "Germany West Central",
    "location": "Frankfurt, Germany",
    "geography": "Europe",
    "lon": 8.68,
    "lat": 50.11,
    "x": 524.11,
    "y": 110.81,
    "freeServerless": false,
    "dedicated": true
  },
  {
    "provider": "azure",
    "regionId": "North Europe",
    "location": "Ireland",
    "geography": "Europe",
    "lon": -6.26,
    "lat": 53.35,
    "x": 482.61,
    "y": 101.81,
    "freeServerless": false,
    "dedicated": true
  },
  {
    "provider": "azure",
    "regionId": "Central India",
    "location": "Pune, India",
    "geography": "Asia Pacific",
    "lon": 73.86,
    "lat": 18.52,
    "x": 705.17,
    "y": 198.56,
    "freeServerless": false,
    "dedicated": true
  }
]